code,name,line,lat,lng
S0928,삼성중앙,9호선,37.5130110,127.0532820
S0924,사평,9호선,37.5042060,127.0152590
S0921,구반포,9호선,37.5013640,126.9873320
S0919,흑석(중앙대입구),9호선,37.5087700,126.9637080
S0916,샛강,9호선,37.5172740,126.9284220
S0913,당산,9호선,37.5334060,126.9028090
S0910,염창,9호선,37.5469360,126.8749160
S0908,증미,9호선,37.5574020,126.8619390
S0906,양천향교,9호선,37.5683810,126.8413330
S0902,김포공항,9호선,37.5619160,126.8021520
S0110,청량리(서울시립대입구),1호선,37.5799560,127.0445850
S0012,곤제,의정부선,37.7504710,127.0837150
S0413,혜화,4호선,37.5823360,127.0018440
S0006,의정부중앙,의정부선,37.7436760,127.0495650
S0003,경전철의정부,의정부선,37.7372020,127.0432570
S0414,한성대입구(삼선교),4호선,37.5884580,127.0062210
S0012A,둔전,에버라인선,37.2670510,127.2136400
S0010,김량장,에버라인선,37.2372470,127.1987810
S0006A,초당,에버라인선,37.2607520,127.1594430
S0002,강남대,에버라인선,37.2701610,127.1260330
S0419,수유(강북구청),4호선,37.6380520,127.0257320
S0012B,파주,경의중앙선,37.8152980,126.7927830
S0005,운정,경의중앙선,37.7258260,126.7672570
S0013,백마,경의중앙선,37.6582390,126.7944610
S0018,화전,경의중앙선,37.6028880,126.8683870
S0025,서강대,경의중앙선,37.5518810,126.9357110
S0109,제기동,1호선,37.5781030,127.0348930
S0009,이천,경강선,37.2655790,127.4422600
S0006B,초월,경강선,37.3744190,127.2990000
S0001,판교,경강선,37.3947610,127.1112170
S0006C,강남구청,분당선,37.5174690,127.0411510
S0003A,숭의,수인선,37.4607890,126.6382970
S0003B,배방,장항선,36.7776290,127.0529910
S0320,남부터미널(예술의전당),3호선,37.4850130,127.0161890
S0008,남동인더스파크,수인선,37.4077220,126.6952160
S0001A,수원,분당선,37.2659170,126.9994220
S0023,보산,경원선,37.9137020,127.0572770
S0022,덕계,경원선,37.8184860,127.0564860
S0028,서동탄,경부선,37.1955040,127.0516720
S0317,잠원,3호선,37.5127590,127.0112200
S0012C,망포,분당선,37.2457950,127.0573530
S0028A,기흥,분당선,37.2750610,127.1159100
S0021,지평,중앙선,37.4763930,127.6298740
S0323,압구정,3호선,37.5270720,127.0284610
S0014,신원,중앙선,37.5255450,127.3729210
S0010A,도심,중앙선,37.5796220,127.2226720
S0007,도농,중앙선,37.6088060,127.1611530
S0004,망우,중앙선,37.5995500,127.0919090
S0319,금호,3호선,37.5480340,127.0158720
S0315,동대입구,3호선,37.5590520,127.0056020
S0011,성복,신분당선,37.3133350,127.0801000
S0014A,정자,신분당선,37.3670980,127.1084030
S0312,을지로3가,3호선,37.5666720,126.9925480
S0004A,강남,신분당선,37.4968370,127.0281040
S0309,경복궁(정부서울청사),3호선,37.5757620,126.9735300
S0017,김유정,경춘선,37.8184660,127.7143400
S0014B,굴봉산,경춘선,37.8320670,127.5576950
S0011A,청평,경춘선,37.7354880,127.4266100
S0009A,마석,경춘선,37.6527820,127.3117670
S0006D,금곡,경춘선,37.6373820,127.2078530
S0003C,별내,경춘선,37.6420200,127.1268400
S0306,홍제,3호선,37.5890660,126.9437360
S0305,녹번,3호선,37.6009270,126.9357560
S0226,인천대공원,인천2호선,37.4487690,126.7526180
S0222,석천사거리,인천2호선,37.4568050,126.7099860
S0220,석바위시장,인천2호선,37.4576110,126.6925750
S0219,가재울,인천2호선,37.4841920,126.6836730
S0211,석남(거북시장),인천2호선,37.5061930,126.6762030
S0213,서구청,인천2호선,37.5437420,126.6767870
S0208,검암,인천2호선,37.5686600,126.6756870
S0204,마전,인천2호선,37.5975660,126.6669980
S0231,신설동,2호선,37.5747470,127.0249320
S0103,센트럴파크,인천1호선,37.3930540,126.6347290
S0107,캠퍼스타운,인천1호선,37.3878550,126.6616730
S0110A,원인재,인천1호선,37.4123330,126.6878690
S0112,문학경기장,인천1호선,37.4349350,126.6985790
S0116,인천시청,인천1호선,37.4572630,126.7021430
S0125,부평,인천1호선,37.4905350,126.7234530
S0120,부평구청,인천1호선,37.5084070,126.7205550
S0126,계산,인천1호선,37.5432380,126.7281280
S0127,계양,인천1호선,37.5714490,126.7357800
S0105,종로5가,1호선,37.5709260,127.0018490
S0209,당산,2호선,37.5349460,126.9027670
S0206,대림(구로구청),2호선,37.4932430,126.8949320
S0208A,구로디지털단지,2호선,37.4852660,126.9014010
S0718,부천종합운동장,7호선,37.5053800,126.7973370
S0818,단대오거리,8호선,37.4452100,127.1568660
S0405,이촌(국립중앙박물관),4호선,37.5222950,126.9747330
S0101,인천공항2터미널,공항철도1호선,37.4606990,126.4414420
S0102,인천공항1터미널,공항철도1호선,37.4474640,126.4525080
S0104,운서,공항철도1호선,37.4929040,126.4937900
S0106,청라국제도시,공항철도1호선,37.5564090,126.6246480
S0401,신용산,4호선,37.5291700,126.9678940
S0108,계양,공항철도1호선,37.5716620,126.7363000
S0109A,김포공항,공항철도1호선,37.5618420,126.8019040
S0111,디지털미디어시티,공항철도1호선,37.5769580,126.8986090
S0113,공덕,공항철도1호선,37.5425300,126.9520240
S0114,서울역,공항철도1호선,37.5532470,126.9697690
S0402,숙대입구(갈월),4호선,37.5445600,126.9721060
S0013A,신설동,우이신설선,37.5760950,127.0232420
S0007A,성신여대입구(돈암),우이신설선,37.5924670,127.0165160
S0004B,정릉,우이신설선,37.6031330,127.0133960
S0001B,북한산보국문,우이신설선,37.6120720,127.0082510
S0005A,솔샘,우이신설선,37.6202380,127.0136260
S0010B,삼양,우이신설선,37.6269140,127.0181060
S0009B,화계,우이신설선,37.6341330,127.0175110
S0008A,가오리,우이신설선,37.6415370,127.0167890
S0003D,솔밭공원,우이신설선,37.6560300,127.0132730
S0002A,북한산우이,우이신설선,37.6629090,127.0127060
S0406,회현(남대문시장),4호선,37.5585140,126.9782460
S0410,명동,4호선,37.5609890,126.9863250
S0929,봉은사,9호선,37.5142190,127.0602450
S0927,선정릉,9호선,37.5102970,127.0439990
S0926,언주,9호선,37.5072870,127.0338680
S0925,신논현,9호선,37.5045980,127.0250600
S0923,고속터미널,9호선,37.5059800,127.0044030
S0922,신반포,9호선,37.5034150,126.9959250
S0920,동작(현충원),9호선,37.5028780,126.9781530
S0412,충무로,4호선,37.5612070,126.9940800
S0918,노들,9호선,37.5128870,126.9532220
S0917,노량진,9호선,37.5135340,126.9410050
S0915,여의도,9호선,37.5217600,126.9240300
S0914,국회의사당,9호선,37.5281050,126.9178740
S0912,선유도,9호선,37.5380200,126.8935250
S0911,신목동,9호선,37.5442770,126.8830800
S0415,동대문역사문화공원,4호선,37.5651330,127.0078850
S0909,등촌,9호선,37.5506320,126.8656890
S0907,가양,9호선,37.5613910,126.8544560
S0905,마곡나루,9호선,37.5667780,126.8273100
S0904,신방화,9호선,37.5675320,126.8166010
S0903,공항시장,9호선,37.5637260,126.8106780
S0901,개화,9호선,37.5786080,126.7981530
S0416,동대문,4호선,37.5709300,127.0092870
S0015,탑석,의정부선,37.7335790,127.0887040
S0014C,송산,의정부선,37.7372790,127.0871590
S0013B,어룡,의정부선,37.7428020,127.0850350
S0011B,효자,의정부선,37.7540250,127.0769020
S0010C,경기도청북부청사,의정부선,37.7505900,127.0714950
S0009C,새말,의정부선,37.7488850,127.0636200
S0008B,동오,의정부선,37.7452710,127.0569470
S0002B,흥선,의정부선,37.7433020,127.0370230
S0001C,의정부시청,의정부선,37.7392560,127.0347810
S0004C,범골,의정부선,37.7287550,127.0435300
S0005B,회룡,의정부선,37.7250060,127.0470730
S0007B,발곡,의정부선,37.7270480,127.0528030
S0417,성신여대입구(돈암),4호선,37.5926120,127.0164410
S0015A,전대.에버랜드,에버라인선,37.2853420,127.2195610
S0014D,보평,에버라인선,37.2589650,127.2184570
S0013C,고진,에버라인선,37.2448400,127.2142510
S0011C,운동장.송담대,에버라인선,37.2378450,127.2091980
S0418,길음,4호선,37.6034070,127.0250530
S0008C,시청.용인대,에버라인선,37.2391510,127.1784060
S0005C,동백,에버라인선,37.2690430,127.1527160
S0003E,지석,에버라인선,37.2696060,127.1365150
S0421,미아사거리,4호선,37.6132920,127.0300530
S0420,미아(서울사이버대학),4호선,37.6266700,127.0259830
S0024,홍대입구,경의중앙선,37.5576410,126.9266830
S0028B,공덕,경의중앙선,37.5425960,126.9520990
S0009D,원흥,일산선,37.6506580,126.8726420
S0029,효창공원앞,경의중앙선,37.5385790,126.9622100
S0008D,금촌,경의중앙선,37.7662170,126.7746440
S0004D,금릉,경의중앙선,37.7513220,126.7653470
S0002C,탄현,경의중앙선,37.6940230,126.7610860
S0006E,일산,경의중앙선,37.6820770,126.7698460
S0015B,능곡,경의중앙선,37.6188080,126.8207830
S0016,행신,경의중앙선,37.6121020,126.8341460
S0423,창동,4호선,37.6530880,127.0472740
S0021A,디지털미디어시티,경의중앙선,37.5774750,126.9004530
S0022A,가좌,경의중앙선,37.5684910,126.9154870
S0026,신촌,경의중앙선,37.5597330,126.9425970
S0031,서울역,경의중앙선,37.5572310,126.9710300
S0012D,여주,경강선,37.2823080,127.6288160
S0011D,세종대왕릉,경강선,37.2953090,127.5709380
S0008E,신둔도예촌,경강선,37.3171850,127.4047600
S0425,상계,4호선,37.6608780,127.0735720
S0005D,경기광주,경강선,37.3999070,127.2526300
S0003F,이매,경강선,37.3946550,127.1278190
S0001D,인천,수인선,37.4764030,126.6173260
S0004E,압구정로데오,분당선,37.5273810,127.0405340
S0324,양재(서초구청),3호선,37.4844770,127.0339020
S0002D,신포,수인선,37.4687400,126.6238530
S0002E,온양온천,장항선,36.7804830,127.0032490
S0005E,아산,장항선,36.7920530,127.1043610
S0006F,쌍용(나사렛대),장항선,36.7937590,127.1214000
S0004F,인하대,수인선,37.4484930,126.6496190
S0005F,송도,수인선,37.4285140,126.6577720
S0007C,원인재,수인선,37.4130490,126.6866480
S0010D,인천논현,수인선,37.4006140,126.7224780
S0011E,소래포구,수인선,37.4009500,126.7335220
S0012E,월곶,수인선,37.3917690,126.7426990
S0025A,소요산,경원선,37.9481000,127.0610340
S0019,동두천,경원선,37.9278780,127.0547900
S0020,지행,경원선,37.8923340,127.0557160
S0026A,덕정,경원선,37.8431880,127.0612770
S0007D,녹양,경원선,37.7593800,127.0422920
S0314,고속터미널,3호선,37.5048910,127.0049160
S0013D,달월,수인선,37.3796810,126.7451770
S0002F,매교,분당선,37.2654810,127.0156780
S0005G,매탄권선,분당선,37.2527590,127.0405660
S0017A,청명,분당선,37.2594890,127.0789340
S0023A,상갈,분당선,37.2618100,127.1088470
S0019A,구성,분당선,37.2989690,127.1056640
S0020A,죽전,분당선,37.3247530,127.1073950
S0020B,용문,중앙선,37.4822300,127.5946470
S0019B,원덕,중앙선,37.4686720,127.5470760
S0017B,오빈,중앙선,37.5060620,127.4738680
S0015C,국수,중앙선,37.5161690,127.3993670
S0013E,양수,중앙선,37.5459810,127.3290980
S0011F,팔당,중앙선,37.5473710,127.2439390
S0008F,양정,중앙선,37.6053300,127.1936400
S0321,옥수,3호선,37.5416840,127.0172690
S0005H,양원,중앙선,37.6065960,127.1079060
S0002G,중랑,중앙선,37.5949170,127.0761160
S0003G,광명,경부선,37.4161820,126.8844660
S0108A,신설동,1호선,37.5760480,127.0246340
S0316,약수,3호선,37.5548670,127.0105410
S0007E,광교(경기대),신분당선,37.3021100,127.0444830
S0010E,상현,신분당선,37.2976640,127.0693420
S0012F,수지구청,신분당선,37.3227020,127.0950260
S0013F,동천,신분당선,37.3379280,127.1029760
S0016A,판교,신분당선,37.3947610,127.1122170
S0009E,청계산입구,신분당선,37.4472110,127.0556640
S0006G,양재시민의숲(매헌),신분당선,37.4700230,127.0384200
S0005I,양재(서초구청),신분당선,37.4838090,127.0346530
S0311,종로3가,3호선,37.5716050,126.9917910
S0310,안국,3호선,37.5764770,126.9854430
S0308,독립문,3호선,37.5745710,126.9577480
S0018A,춘천,경춘선,37.8850540,127.7170230
S0019C,남춘천,경춘선,37.8640070,127.7237920
S0016B,강촌,경춘선,37.8057230,127.6341460
S0015D,백양리,경춘선,37.8307790,127.5893300
S0013G,가평,경춘선,37.8145360,127.5107390
S0012G,상천,경춘선,37.7702460,127.4548210
S0010F,대성리,경춘선,37.6840710,127.3793190
S0307,무악재,3호선,37.5822990,126.9502910
S0008G,천마산,경춘선,37.6589780,127.2853790
S0007F,평내호평,경춘선,37.6532250,127.2444930
S0005J,사릉,경춘선,37.6510800,127.1769330
S0004G,퇴계원,경춘선,37.6483110,127.1439520
S0002H,갈매,경춘선,37.6341180,127.1147570
S0001E,신내,경춘선,37.6128870,127.1032180
S0106A,동대문,1호선,37.5716870,127.0109300
S0304,불광,3호선,37.6105530,126.9298200
S0227,운연(서창),인천2호선,37.4401270,126.7599700
S0225,남동구청,인천2호선,37.4481610,126.7369390
S0224,만수,인천2호선,37.4549110,126.7320940
S0223,모래내시장,인천2호선,37.4558300,126.7192980
S0303,연신내,3호선,37.6192290,126.9210380
S0221,인천시청,인천2호선,37.4568330,126.7013060
S0218,시민공원(문화창작지대),인천2호선,37.4583350,126.6811920
S0216,주안,인천2호선,37.4649920,126.6790980
S0217,주안국가산단,인천2호선,37.4737030,126.6811300
S0206A,인천가좌,인천2호선,37.4897000,126.6752080
S0209A,서부여성회관,인천2호선,37.5001680,126.6757950
S0212,가정중앙시장,인천2호선,37.5170540,126.6766720
S0302,구파발,3호선,37.6367630,126.9188210
S0207,가정(루원시티),인천2호선,37.5246490,126.6755390
S0214,아시아드경기장(공촌사거리),인천2호선,37.5517000,126.6771220
S0215,검바위,인천2호선,37.5614050,126.6775660
S0210,독정,인천2호선,37.5852120,126.6758440
S0205,완정,인천2호선,37.5929280,126.6732030
S0203,검단사거리,인천2호선,37.6018500,126.6571080
S0202,왕길,인천2호선,37.5951800,126.6426960
S0201,검단오류(검단산업단지),인천2호선,37.5948770,126.6271780
S0102A,국제업무지구,인천1호선,37.3999070,126.6303470
S0104A,인천대입구,인천1호선,37.3860070,126.6394840
S0105A,지식정보단지,인천1호선,37.3783840,126.6451680
S0106B,테크노파크,인천1호선,37.3822680,126.6563650
S0108B,동막,인천1호선,37.3978780,126.6740050
S0109B,동춘,인천1호선,37.4047370,126.6810150
S0238,신답,2호선,37.5700400,127.0464810
S0111A,신연수,인천1호선,37.4180400,126.6938630
S0113A,선학,인천1호선,37.4266840,126.6988630
S0114A,인천터미널,인천1호선,37.4423830,126.6997060
S0115,예술회관,인천1호선,37.4493960,126.7010120
S0117,간석오거리,인천1호선,37.4670480,126.7079380
S0118,부평삼거리,인천1호선,37.4776790,126.7102080
S0119,동수,인천1호선,37.4853120,126.7182470
S0241,용답,2호선,37.5619040,127.0508990
S0122,부평시장,인천1호선,37.4983830,126.7222440
S0121,갈산,인천1호선,37.5172680,126.7215140
S0123,작전,인천1호선,37.5304150,126.7225270
S0128,임학,인천1호선,37.5450590,126.7386650
S0129,귤현,인천1호선,37.5663790,126.7426540
S0218A,아현,2호선,37.5573450,126.9561410
S0216A,이대,2호선,37.5567330,126.9460130
S0214A,신촌,2호선,37.5551310,126.9369260
S0212A,홍대입구,2호선,37.5567900,126.9237080
S0207A,영등포구청,2호선,37.5257060,126.8966100
S0205A,문래,2호선,37.5179330,126.8947600
S0704,부평구청,7호선,37.5073940,126.7215990
S0706,굴포천,7호선,37.5069970,126.7312800
S0710,상동,7호선,37.5057810,126.7530830
S0712,부천시청,7호선,37.5046310,126.7635380
S0714,신중동,7호선,37.5030480,126.7759600
S0720,까치울,7호선,37.5062070,126.8109390
S0812,모란,8호선,37.4338240,127.1298370
S0816,신흥,8호선,37.4409180,127.1475640
S0210A,신대방,2호선,37.4874620,126.9131490
S0819,남한산성입구(성남법원.검찰청),8호선,37.4515350,127.1598160
S0810,복정,8호선,37.4710520,127.1267320
S0807,문정,8호선,37.4858550,127.1225000
S0803,송파,8호선,37.4997030,127.1121830
S0801,잠실(송파구청),8호선,37.5146920,127.1043380
S0213A,신림,2호선,37.4842010,126.9297150
S0808,천호(풍납토성),8호선,37.5381130,127.1232540
S0811,암사,8호선,37.5502100,127.1275620
S0723,광명사거리,7호선,37.4792520,126.8548760
S0724,철산,7호선,37.4760500,126.8679110
S0727,대림(구로구청),7호선,37.4930130,126.8970750
S0215A,봉천,2호선,37.4823620,126.9418920
S0728,신풍,7호선,37.5000800,126.9099300
S0731,장승배기,7호선,37.5048980,126.9391500
S0732,상도,7호선,37.5028340,126.9479100
S0735,이수,7호선,37.4851960,126.9816050
S0736,내방,7호선,37.4876180,126.9935130
S0217A,서울대입구(관악구청),2호선,37.4812470,126.9527390
S0739,논현,7호선,37.5110930,127.0214150
S0740,학동,7호선,37.5142290,127.0316560
S0749,뚝섬유원지,7호선,37.5315400,127.0667040
S0751,건대입구,7호선,37.5407860,127.0710110
S0758,중곡,7호선,37.5659230,127.0843200
S0219A,낙성대,2호선,37.4769300,126.9636930
S0760,용마산,7호선,37.5736470,127.0867270
S0759,상봉(시외버스터미널),7호선,37.5955770,127.0857160
S0756,중화,7호선,37.6025450,127.0792640
S0752,공릉(서울과학기술대),7호선,37.6257420,127.0728960
S0750,하계,7호선,37.6363520,127.0679900
S0747,노원,7호선,37.6548360,127.0604620
S0742,도봉산,7호선,37.6892410,127.0465090
S0743,장암,7호선,37.7001090,127.0531960
S0636,태릉입구,6호선,37.6173380,127.0747350
S0635,석계,6호선,37.6148720,127.0655950
S0634,돌곶이,6호선,37.6105370,127.0564310
S0633,상월곡(한국과학기술연구원),6호선,37.6063770,127.0484910
S0632,월곡(동덕여대),6호선,37.6019480,127.0415180
S0629,보문,6호선,37.5852740,127.0193510
S0626,창신,6호선,37.5796610,127.0152410
S0627,동묘앞,6호선,37.5722790,127.0156530
S0624,약수,6호선,37.5542630,127.0103580
S0622,한강진,6호선,37.5396310,127.0017250
S0621,이태원,6호선,37.5344880,126.9943020
S0618,효창공원앞,6호선,37.5392330,126.9613840
S0617,공덕,6호선,37.5435550,126.9516780
S0616,대흥(서강대앞),6호선,37.5477710,126.9420690
S0229,교대(법원.검찰청),2호선,37.4939610,127.0146670
S0606,합정,6호선,37.5492090,126.9133660
S0603,마포구청,6호선,37.5635150,126.9033430
S0604,증산(명지대앞),6호선,37.5838760,126.9096450
S0607,새절(신사),6호선,37.5911480,126.9136290
S0609,구산,6호선,37.6113770,126.9172700
S0232,강남,2호선,37.4979900,127.0279120
S0613,불광,6호선,37.6108730,126.9293900
S0545,길동,5호선,37.5378010,127.1400040
S0542,강동,5호선,37.5358040,127.1324810
S0538,천호(풍납토성),5호선,37.5386400,127.1233080
S0536,아차산(어린이대공원후문),5호선,37.5516910,127.0897610
S0535,군자(능동),5호선,37.5570880,127.0795770
S0534,장한평,5호선,37.5614400,127.0646230
S0533,답십리,5호선,37.5667470,127.0527040
S0531,왕십리(성동구청),5호선,37.5618400,127.0370590
S0530,행당,5호선,37.5573220,127.0294760
S0528,청구,5호선,37.5602760,127.0136390
S0527,동대문역사문화공원,5호선,37.5646650,127.0053530
S0525,종로3가,5호선,37.5725400,126.9903050
S0243,삼성(무역센터),2호선,37.5088440,127.0631600
S0523,서대문,5호선,37.5657730,126.9666410
S0522,충정로(경기대입구),5호선,37.5602360,126.9629000
S0521,애오개,5호선,37.5537360,126.9568200
S0519,마포,5호선,37.5395740,126.9459320
S0518,여의나루,5호선,37.5270980,126.9329010
S0516,신길,5호선,37.5176230,126.9148390
S0515,영등포시장,5호선,37.5226690,126.9051390
S0514,영등포구청,5호선,37.5242000,126.8950300
S0513,양평,5호선,37.5255690,126.8861290
S0511,목동,5호선,37.5260650,126.8649310
S0510,신정(은행정),5호선,37.5249970,126.8561910
S0509,까치산,5호선,37.5317680,126.8466830
S0506,우장산,5호선,37.5487680,126.8363180
S0507,발산,5호선,37.5585980,126.8376680
S0247,잠실새내,2호선,37.5116870,127.0861620
S0501,김포공항,5호선,37.5623840,126.8012920
S0502,개화산,5호선,37.5723990,126.8061710
S0035,평택,경부선,36.9907260,127.0851590
S0038,천안,경부선,36.8100050,127.1468260
S0037,직산,경부선,36.8705930,127.1439040
S0036,성환,경부선,36.9160760,127.1269640
S0249,잠실(송파구청),2호선,37.5132620,127.1001590
S0034,지제,경부선,37.0188000,127.0704440
S0030,복정,분당선,37.4703450,127.1266580
S0018B,수서,분당선,37.4874720,127.1014220
S0030A,송탄,경부선,37.0756960,127.0543010
S0031A,진위,경부선,37.1094470,127.0622780
S0032,오산대,경부선,37.1689530,127.0631970
S0250,잠실나루,2호선,37.5207330,127.1037900
S0026B,병점,경부선,37.2075030,127.0327310
S0009F,선릉,분당선,37.5048560,127.0488070
S0010G,한티,분당선,37.4962370,127.0528730
S0013H,구룡,분당선,37.4868390,127.0588560
S0014E,개포동,분당선,37.4891160,127.0661400
S0022B,보정,분당선,37.3127520,127.1081960
S0012H,수리산,안산선,37.3498010,126.9253650
S0001F,오이도,안산선,37.3623570,126.7387140
S0002I,정왕,안산선,37.3517350,126.7429890
S0003H,신길온천,안산선,37.3382120,126.7658440
S0005K,도화,경인선,37.4660700,126.6686720
S0004H,독산,경부선,37.4666130,126.8892490
S0007G,간석,경인선,37.4647370,126.6941810
S0011G,부개,경인선,37.4884180,126.7410900
S0246,구의(광진구청),2호선,37.5370770,127.0859160
S0020C,구일,경인선,37.4967560,126.8707930
S0002J,주엽,일산선,37.6700720,126.7613340
S0004I,마두,일산선,37.6522060,126.7776200
S0005L,백석,일산선,37.6431140,126.7878700
S0007H,화정,일산선,37.6345920,126.8326500
S0008H,원당,일산선,37.6533240,126.8430410
S0244,건대입구,2호선,37.5403730,127.0691910
S0025B,오리,분당선,37.3398240,127.1089420
S0021B,정자,분당선,37.3659940,127.1080700
S0027,수내,분당선,37.3784550,127.1143220
S0034A,야탑,분당선,37.4111850,127.1287150
S0035A,모란,분당선,37.4320520,127.1291040
S0031B,가천대,분당선,37.4486050,127.1266970
S0002K,범계,과천선,37.3897930,126.9508060
S0102B,시청,1호선,37.5657150,126.9770880
S0004J,인덕원,과천선,37.4015530,126.9767150
S0005M,정부과천청사,과천선,37.4265130,126.9897800
S0008I,대공원,과천선,37.4356750,127.0065230
S0009G,경마공원,과천선,37.4438850,127.0078880
S0008J,가능,경원선,37.7485770,127.0442130
S0013I,중동,경인선,37.4865620,126.7648430
S0239,뚝섬,2호선,37.5471840,127.0473670
S0004K,안산,안산선,37.3270820,126.7885320
S0005N,초지,안산선,37.3206460,126.8059130
S0007I,중앙,안산선,37.3159410,126.8385730
S0009H,상록수,안산선,37.3027950,126.8664890
S0013J,산본,안산선,37.3581010,126.9332740
S0024A,수원,경부선,37.2663480,126.9995610
S0020D,성균관대,경부선,37.3003490,126.9707500
S0016C,의왕,경부선,37.3208520,126.9482170
S0013K,명학,경부선,37.3846530,126.9354330
S0011H,안양,경부선,37.4015920,126.9228740
S0006H,금천구청,경부선,37.4556260,126.8939800
S0001G,구로,경부선,37.5030390,126.8819660
S0001H,인천,경인선,37.4760790,126.6168010
S0002L,동인천,경인선,37.4752760,126.6328020
S0008K,동암,경인선,37.4714080,126.7028960
S0009I,백운,경인선,37.4836640,126.7077040
S0233,상왕십리,2호선,37.5643540,127.0293540
S0014F,부천,경인선,37.4840500,126.7826860
S0019D,개봉,경인선,37.4945940,126.8596800
S0014G,회룡,경원선,37.7244160,127.0473600
S0013L,도봉산,경원선,37.6895340,127.0460490
S0009J,방학,경원선,37.6675030,127.0442730
S0018C,녹천,경원선,37.6447990,127.0512690
S0027A,광운대,경원선,37.6236320,127.0618350
S0030B,신이문,경원선,37.6018540,127.0673250
S0017C,청량리(서울시립대입구),경원선,37.5807590,127.0483000
S0006I,왕십리(성동구청),경원선,37.5618270,127.0383520
S0004L,옥수,경원선,37.5404460,127.0186720
S0003I,한남,경원선,37.5294300,127.0091690
S0001I,이촌(국립중앙박물관),경원선,37.5224270,126.9734060
S0008L,영등포,경부선,37.5155040,126.9076280
S0014H,노량진,경부선,37.5141490,126.9427100
S0226A,을지로4가,2호선,37.5665950,126.9978170
S0021C,서울역,경부선,37.5543370,126.9711340
S0333,경찰병원,3호선,37.4959180,127.1245400
S0332,가락시장,3호선,37.4922450,127.1177570
S0107A,동묘앞,1호선,37.5731970,127.0164800
S0201A,신정네거리,2호선,37.5200740,126.8529120
S0330,일원,3호선,37.4836810,127.0843900
S0328,학여울,3호선,37.4966630,127.0705940
S0327,대치,3호선,37.4946120,127.0636420
S0325,매봉,3호선,37.4869470,127.0467690
S0301,지축,3호선,37.6480330,126.9139170
S0203A,도림천,2호선,37.5142870,126.8827680
S0409,총신대입구(이수),4호선,37.4862630,126.9819890
S0221A,시청,2호선,37.5635880,126.9754110
S0608,응암,6호선,37.5986050,126.9155770
S0549,마천,5호선,37.4949900,127.1527810
S0540,오금,5호선,37.5020570,127.1279380
S0539,방이,5호선,37.5088570,127.1261330
S0234,역삼,2호선,37.5006220,127.0364560
S0103A,종각,1호선,37.5701610,126.9829230
S0550,고덕,5호선,37.5550040,127.1541510
S0547,명일,5호선,37.5513700,127.1439990
S0007J,삼가,에버라인선,37.2421150,127.1680750
S0004M,어정,에버라인선,37.2749170,127.1437140
S0001J,기흥,에버라인선,37.2754490,127.1166650
S0021D,디지털미디어시티,경의중앙선,37.5774750,126.9004530
S0031C,서울역,경의중앙선,37.5572310,126.9710300
S0010H,문산,경의중앙선,37.8546190,126.7880470
S0011I,월롱,경의중앙선,37.7961880,126.7925870
S0422,쌍문,4호선,37.6486270,127.0347090
S0003J,야당,경의중앙선,37.7123270,126.7613560
S0009K,풍산,경의중앙선,37.6723460,126.7862430
S0014I,곡산,경의중앙선,37.6456760,126.8017620
S0017D,강매,경의중앙선,37.6123140,126.8432230
S0019E,수색,경의중앙선,37.5808420,126.8956110
S0024B,홍대입구,경의중앙선,37.5576410,126.9266830
S0028C,공덕,경의중앙선,37.5425960,126.9520990
S0424,노원,4호선,37.6562700,127.0632760
S0010I,부발,경강선,37.2601920,127.4902770
S0007K,곤지암,경강선,37.3513150,127.3467400
S0004N,삼동,경강선,37.4095220,127.2033600
S0007L,선정릉,분당선,37.5107350,127.0436770
S0008M,서울숲,분당선,37.5436170,127.0447070
S0001K,신창(순천향대),장항선,36.7695020,126.9511080
S0007M,봉명,장항선,36.8012150,127.1357630
S0006J,연수,수인선,37.4178040,126.6789400
S0009L,호구포,수인선,37.4016370,126.7086270
S0318,교대(법원.검찰청),3호선,37.4930250,127.0137860
S0021E,동두천중앙,경원선,37.9018850,127.0564820
S0010J,양주,경원선,37.7743810,127.0447080
S0017E,당정,경부선,37.3442850,126.9483450
S0003K,수원시청,분당선,37.2619110,127.0307360
S0015E,영통,분당선,37.2515680,127.0713940
S0026C,신갈,분당선,37.2861020,127.1113130
S0322,신사,3호선,37.5163340,127.0201140
S0018D,양평,중앙선,37.4927730,127.4918370
S0016D,아신,중앙선,37.5138200,127.4431730
S0012I,운길산,중앙선,37.5546690,127.3101150
S0009M,덕소,중앙선,37.5867810,127.2088320
S0006K,구리,중앙선,37.6033920,127.1438690
S0003L,상봉(시외버스터미널),중앙선,37.5966780,127.0850400
S0313,충무로,3호선,37.5614300,126.9940720
S0008N,광교중앙(아주대),신분당선,37.2886170,127.0514780
S0124,경인교대입구,인천1호선,37.5381570,126.7225970
S0130,박촌,인천1호선,37.5537030,126.7450770
S0220A,충정로(경기대입구),2호선,37.5597040,126.9643780
S0211A,합정,2호선,37.5494570,126.9138080
S0204A,신도림,2호선,37.5089610,126.8910840
S0708,삼산체육관,7호선,37.5064110,126.7421530
S0716,춘의,7호선,37.5036630,126.7870360
S0815,수진,8호선,37.4374280,127.1407220
S0104B,종로3가,1호선,37.5704060,126.9918470
S0809,장지,8호선,37.4787030,127.1261910
S0802,석촌,8호선,37.5055570,127.1068320
S0806,강동구청,8호선,37.5303410,127.1205080
S0722,천왕,7호선,37.4866370,126.8387130
S0726,남구로,7호선,37.4860560,126.8872490
S0729,보라매,7호선,37.4998720,126.9204280
S0734,남성,7호선,37.4845960,126.9712510
S0737,고속터미널,7호선,37.5033670,127.0050680
S0741,강남구청,7호선,37.5171790,127.0412550
S0757,군자(능동),7호선,37.5568970,127.0793380
S0761,면목,7호선,37.5885790,127.0875030
S0755,먹골,7호선,37.6106370,127.0777250
S0748,중계,7호선,37.6445830,127.0643030
S0745,수락산,7호선,37.6778500,127.0553150
S0637,화랑대(서울여대입구),6호선,37.6200640,127.0846890
S0631,고려대(종암),6호선,37.5905080,127.0362960
S0628,신당,6호선,37.5661540,127.0161460
S0623,버티고개,6호선,37.5480130,127.0070550
S0619,삼각지,6호선,37.5355340,126.9740320
S0601,월드컵경기장(성산),6호선,37.5695320,126.8992980
S0615,독바위,6호선,37.6184560,126.9330310
S0008O,한대앞,안산선,37.3096890,126.8534400
S0023B,화서,경부선,37.2838620,126.9896270
S0015F,금정,경부선,37.3722210,126.9434290
S0009N,관악,경부선,37.4192320,126.9087060
S0004O,제물포,경인선,37.4667690,126.6566660
S0010K,부평,경인선,37.4894450,126.7245060
S0016E,역곡,경인선,37.4851780,126.8115020
S0012J,의정부,경원선,37.7384150,127.0459580
S0016F,창동,경원선,37.6530070,127.0478060
S0029A,석계,경원선,37.6145320,127.0659340
S0005O,응봉,경원선,37.5499460,127.0345380
S0002M,서빙고,경원선,37.5195940,126.9885370
S0012K,대방,경부선,37.5133420,126.9263820
S0224A,을지로3가,2호선,37.5663060,126.9916960
S0411,남태령,4호선,37.4638730,126.9891340
S0329,대청,3호선,37.4935140,127.0795320
S0202A,양천구청,2호선,37.5123980,126.8658190
S0407,동작(현충원),4호선,37.5028520,126.9803470
S0548,거여,5호선,37.4931050,127.1441500
S0105B,영종,공항철도1호선,37.5120200,126.5242540
S0103B,공항화물청사,공항철도1호선,37.4590410,126.4775160
S0107B,검암,공항철도1호선,37.5690980,126.6740070
S0112A,홍대입구,공항철도1호선,37.5574380,126.9267150
S0404,삼각지,4호선,37.5340750,126.9726000
S0011J,보문,우이신설선,37.5852860,127.0193810
S0403,서울역,4호선,37.5528100,126.9725560
S0012L,삼양사거리,우이신설선,37.6213370,127.0204730
S0006L,4.19민주묘지,우이신설선,37.6495020,127.0136840
S0930,종합운동장,9호선,37.5114260,127.0762750
S0817,산성,8호선,37.4571220,127.1499080
S0805,가락시장,8호선,37.4928880,127.1183980
S0804,몽촌토성(평화의문),8호선,37.5174090,127.1123590
S0721,온수(성공회대입구),7호선,37.4920920,126.8230230
S0725,가산디지털단지,7호선,37.4803380,126.8826560
S0730,신대방삼거리,7호선,37.4997010,126.9282760
S0733,숭실대입구(살피재),7호선,37.4960290,126.9538220
S0738,반포,7호선,37.5081780,127.0117270
S0744,청담,7호선,37.5193650,127.0533500
S0753,어린이대공원(세종대),7호선,37.5480140,127.0746580
S0762,사가정,7호선,37.5808940,127.0884780
S0754,태릉입구,7호선,37.6182940,127.0753970
S0222A,사당,2호선,37.4765380,126.9815440
S0746,마들,7호선,37.6649400,127.0576750
S0638,봉화산(서울의료원),6호선,37.6172830,127.0914010
S0225A,방배,2호선,37.4814260,126.9975960
S0630,안암(고대병원앞),6호선,37.5862720,127.0290050
S0625,청구,6호선,37.5606080,127.0139860
S0227A,서초,2호선,37.4918970,127.0079170
S0620,녹사평(용산구청),6호선,37.5346750,126.9866950
S0612,상수,6호선,37.5477160,126.9228520
S0605,망원,6호선,37.5560940,126.9100520
S0602,디지털미디어시티,6호선,37.5761080,126.9013910
S0610,연신내,6호선,37.6186360,126.9206250
S0611,역촌,6호선,37.6060210,126.9227440
S0546,굽은다리(강동구민회관앞),5호선,37.5454770,127.1428530
S0537,광나루(장신대),5호선,37.5453030,127.1035700
S0240,선릉,2호선,37.5042860,127.0482030
S0532,마장,5호선,37.5661000,127.0429730
S0529,신금호,5호선,37.5545480,127.0203310
S0526,을지로4가,5호선,37.5673520,126.9980320
S0524,광화문(세종문화회관),5호선,37.5715250,126.9771700
S0520,공덕,5호선,37.5444310,126.9513720
S0517,여의도,5호선,37.5217470,126.9243570
S0245,종합운동장,2호선,37.5110220,127.0737040
S0512,오목교(목동운동장앞),5호선,37.5244960,126.8751810
S0508,화곡,5호선,37.5415130,126.8404610
S0505,마곡,5호선,37.5601830,126.8254480
S0503,송정,5호선,37.5611840,126.8119730
S0504,방화,5호선,37.5774460,126.8127410
S0039,두정,경부선,36.8337050,127.1489600
S0010L,신길,경부선,37.5168620,126.9178650
S0029B,서정리,경부선,37.0564960,127.0528190
S0033,오산,경부선,37.1458850,127.0667200
S0027B,세마,경부선,37.1875330,127.0431800
S0025C,세류,경부선,37.2450250,127.0132220
S0011K,도곡,분당선,37.4912240,127.0551860
S0016G,대모산입구,분당선,37.4913730,127.0727200
S0248,강변(동서울터미널),2호선,37.5350950,127.0946810
S0033A,이매,분당선,37.3953710,127.1282480
S0003M,도원,경인선,37.4684460,126.6427060
S0015G,소사,경인선,37.4827530,126.7954400
S0001L,대화,일산선,37.6760870,126.7475690
S0003N,정발산,일산선,37.6594770,126.7733590
S0006M,대곡,일산선,37.6316260,126.8110240
S0010M,삼송,일산선,37.6530830,126.8955580
S0024C,미금,분당선,37.3500770,127.1089100
S0029C,서현,분당선,37.3851260,127.1235920
S0032A,태평,분당선,37.4400190,127.1277090
S0242,성수,2호선,37.5445810,127.0559610
S0003O,평촌,과천선,37.3942870,126.9638830
S0006N,과천,과천선,37.4330210,126.9965680
S0007N,선바위,과천선,37.4516730,127.0023030
S0017F,온수(성공회대입구),경인선,37.4924330,126.8240860
S0006O,고잔,안산선,37.3167840,126.8231440
S0010N,반월,안산선,37.3122120,126.9035240
S0237,한양대,2호선,37.5552730,127.0436550
S0018E,군포,경부선,37.3535600,126.9484620
S0007O,석수,경부선,37.4350470,126.9022950
S0235,왕십리(성동구청),2호선,37.5612380,127.0369540
S0006P,주안,경인선,37.4650470,126.6797420
S0012M,송내,경인선,37.4876000,126.7536640
S0018F,오류동,경인선,37.4945260,126.8453650
S0015H,망월사,경원선,37.7099140,127.0474550
S0230,신당,2호선,37.5656400,127.0196140
S0024D,월계,경원선,37.6332120,127.0588310
S0028D,외대앞,경원선,37.5960730,127.0635490
S0228,동대문역사문화공원,2호선,37.5656130,127.0090540
S0005P,신도림,경부선,37.5087870,126.8911440
S0019F,용산,경부선,37.5298490,126.9645610
S0334,오금,3호선,37.5021290,127.1283190
S0236,용두(동대문구청),2호선,37.5740280,127.0380910
S0331,수서,3호선,37.4873780,127.1019070
S0223A,을지로입구,2호선,37.5660140,126.9826180
S0426,불암산,4호선,37.6702720,127.0790660
S0408,사당,4호선,37.4769550,126.9816510
S0101A,서울역,1호선,37.5562280,126.9721350
S0543,개롱,5호선,37.4980790,127.1348200
S0544,둔촌동,5호선,37.5277880,127.1362480
S0551,상일동,5호선,37.5567120,127.1664170
S0009O,명지대,에버라인선,37.2379640,127.1902940
S0614,광흥창(서강),6호선,37.5474560,126.9319930
S0011L,대야미,안산선,37.3284670,126.9173320
S0002N,가산디지털단지,경부선,37.4815810,126.8825810
S0011M,도봉,경원선,37.6795630,127.0455950
S0001M,회기,중앙선,37.5894600,127.0575830
S0022C,남영,경부선,37.5410210,126.9713000
S0326,도곡,3호선,37.4909220,127.0554520
S0541,올림픽공원(한국체대),5호선,37.5162010,127.1309230
S0931,삼전,9호선,37.5047380,127.0880250
S0932,석촌고분,9호선,37.5025580,127.0970330
S0933,석촌,9호선,37.5052080,127.1070400
S0934,송파나루,9호선,37.5103720,127.1122160
S0935,한성백제,9호선,37.5164040,127.1165030
S0936,올림픽공원(한국체대),9호선,37.5162690,127.1302880
S0937,둔촌오륜,9호선,37.5196830,127.1379890
S0938,중앙보훈병원,9호선,37.5291910,127.1487390
S0720A,까치울,7호선,37.5061300,126.8109300
S0814,남위례,8호선,37.4624000,127.1397700
S0718A,부천종합운동장,7호선,37.5050200,126.7966100
S0716A,춘의,7호선,37.5036500,126.7882800
S0714A,신중동,7호선,37.5028200,126.7756600
S0712A,부천시청,7호선,37.5044400,126.7636400
S0710A,상동,7호선,37.5058140,126.7531630
S0708A,삼산체육관,7호선,37.5072400,126.7417900
S0706A,굴포천,7호선,37.5068100,126.7323400
S0003P,진접,진접선,37.7205000,127.2034000
S0704A,부평구청,7호선,37.5084800,126.7207700
S0008P,부천종합운동장,서해선,37.5054570,126.7972890
S0010O,원종,서해선,37.5239000,126.8049000
S0009P,김포공항,서해선,37.5617000,126.8041000
S0002O,오남,진접선,37.7050000,127.1928100
S0031D,청산,경원선,37.9817200,127.0691200
S0001N,별내별가람,진접선,37.6677800,127.1158100
S0032B,전곡,경원선,38.0245800,127.0718000
S0033B,연천,경원선,38.1007300,127.0737200
S0007P,소새울,서해선,37.4684670,126.7972520
S0004P,시흥대야,서해선,37.4501450,126.7930410
S0013M,시흥능곡,서해선,37.3698640,126.8085730
S0014J,달미,서해선,37.3488470,126.8094090
S0015I,선부,서해선,37.3343530,126.8099040
S0012N,초지,서해선,37.3196190,126.8081470
S0001O,원시,서해선,37.3023710,126.7866910
S0002P,신천,서해선,37.4390660,126.7867880
S0003Q,신현,서해선,37.4090080,126.7880170
S0006Q,원곡,서해선,37.3132100,126.7962610
S0110B,마곡나루,공항철도1호선,37.5655430,126.8273780
S0015J,미금,신분당선,37.3499820,127.1089180
S0005Q,소사,서해선,37.4832790,126.7950230
S0011N,시흥시청,서해선,37.3822230,126.8056250
S0018G,고색,수인선,37.2496300,126.9802480
S0016H,어천,수인선,37.2501020,126.9087900
S0014K,사리,수인선,37.2899800,126.8568500
S0001P,금정,과천선,37.3722090,126.9434170
S0011O,지축,일산선,37.6480170,126.9139700
S0001Q,임진강,경의중앙선,37.8884210,126.7467650
S0015K,야목,수인선,37.2641790,126.8794830
S0017G,오목천,수인선,37.2430400,126.9636760
S0007Q,운천,경의중앙선,37.8799420,126.7699990
S0552,강일,5호선,37.5574900,127.1759300
S0556,하남검단산,5호선,37.5397200,127.2234500
S0555,하남시청(덕풍-신장),5호선,37.5420500,127.2061200
S0702,산곡,7호선,37.5086000,126.7035277
S0701,석남(거북시장),7호선,37.5062285,126.6762813
S0639,신내,6호선,37.6131740,127.1022310
S0001R,양촌,김포골드라인,37.6423790,126.6143090
S0002Q,구래,김포골드라인,37.6453840,126.6286330
S0003R,마산,김포골드라인,37.6407320,126.6443440
S0004Q,장기,김포골드라인,37.6439860,126.6690170
S0005R,운양,김포골드라인,37.6538670,126.6839300
S0006R,걸포북변,김포골드라인,37.6316500,126.7059750
S0007R,사우(김포시청),김포골드라인,37.6202490,126.7197310
S0008Q,풍무,김포골드라인,37.6124880,126.7323870
S0009Q,고촌,김포골드라인,37.6012430,126.7703450
S0010P,김포공항,김포골드라인,37.5623600,126.8018680
S0553,미사,5호선,37.5609270,127.1938770
S0554,하남풍산,5호선,37.5520340,127.2038640
S0101B,송도달빛축제공원,인천1호선,37.4071430,126.6259700
S0007S,샛강,신림선,37.5170969,126.9293990
S0005S,대방,신림선,37.5133059,126.9257265
S0003S,서울지방병무청,신림선,37.5060464,126.9227083
S0002R,보라매,신림선,37.5002739,126.9204355
S0001S,보라매공원,신림선,37.4955691,126.9180827
S0004R,보라매병원,신림선,37.4929598,126.9234964
S0006S,당곡,신림선,37.4902998,126.9275133
S0008R,신림,신림선,37.4849266,126.9296159
S0009R,서원,신림선,37.4782341,126.9330365
S0010Q,서울대벤처타운,신림선,37.4720019,126.9339351
S0011P,관악산(서울대),신림선,37.4691018,126.9450639
S0003T,신논현,신분당선,37.5045980,127.0250600
S0004S,탕정,장항선,36.7886600,127.0848500
S0001T,신사,신분당선,37.5163340,127.0201140
S0002S,논현,신분당선,37.5110930,127.0214150
S0004T,구리,별내선,37.6026200,127.1407000
S0001U,별내,별내선,37.6423200,127.1276000
S0005T,다산,별내선,37.6242900,127.1497300
S0002T,동구릉,별내선,37.6110500,127.1379300
S0003U,장자호수공원,별내선,37.5873800,127.1379400
S0813,암사역사공원,8호선,37.5569500,127.1370200
S0002U,성남,경강선,37.3946800,127.1194500
S0001V,운정,수도권광역급행철도,37.7161400,126.7284100
S0003V,대곡,수도권광역급행철도,37.6319100,126.8111300
S0002V,킨텍스,수도권광역급행철도,37.6653200,126.7484300
S0004U,연신내,수도권광역급행철도,37.6187800,126.9213000
S0005U,서울,수도권광역급행철도,37.5556900,126.9729600
S0006T,삼성,수도권광역급행철도,37.5088700,127.0632400
S0008S,수서,수도권광역급행철도,37.4863700,127.1016100
S0010R,성남,수도권광역급행철도,37.3946700,127.1205800
S0009S,구성,수도권광역급행철도,37.2991300,127.1038900
S0007T,동탄,수도권광역급행철도,37.2003400,127.0956900
